ID,City,Lat,Lng,Max Temp,Humidity,Cloudiness,Wind Speed,Country,Date
0,Chokurdakh,70.63,147.92,34.05,80,99,1.7,RU,1601606431
1,Torbay,47.67,-52.73,61.0,93,90,11.41,CA,1601606431
2,Qaanaaq,77.48,-69.36,16.56,81,97,4.88,GL,1601606432
3,Bredasdorp,-34.53,20.04,57.2,58,83,20.8,ZA,1601606432
4,Arraial do Cabo,-22.97,-42.03,73.81,87,0,24.2,BR,1601606432
5,Pisco,-13.7,-76.22,62.6,82,4,18.34,PE,1601606433
6,Vaini,-21.2,-175.2,73.4,94,75,10.29,TO,1601606433
7,Mataura,-46.19,168.86,57.0,59,100,7.0,NZ,1601606433
8,East London,-33.02,27.91,58.82,73,100,17.92,ZA,1601606434
9,Burnie,-41.07,145.92,64.0,51,66,13.0,AU,1601606434
10,Kapaa,22.08,-159.32,84.2,66,1,8.05,US,1601606434
11,Lüderitz,-26.65,15.16,51.53,75,2,6.06,NA,1601606435
12,Hermanus,-34.42,19.23,55.99,78,64,5.99,ZA,1601606435
13,Aklavik,68.22,-135.01,42.8,81,75,4.7,CA,1601606435
14,Codrington,-38.27,141.97,72.82,64,0,13.02,AU,1601606435
15,Cidreira,-30.18,-50.21,68.07,85,42,8.12,BR,1601606436
16,Marawi,8.0,124.29,82.99,82,77,4.0,PH,1601606436
17,Esperance,-33.87,121.9,68.0,64,26,12.75,AU,1601606436
18,Motomachi,43.82,144.1,63.0,59,75,5.82,JP,1601606436
19,Punta Arenas,-53.15,-70.92,30.2,63,0,11.41,CL,1601606329
20,Avarua,-21.21,-159.78,78.8,83,0,16.11,CK,1601606437
21,Ushuaia,-54.8,-68.3,30.2,92,75,18.34,AR,1601606390
22,Albany,42.6,-73.97,55.0,64,28,2.82,US,1601606388
23,Morris,40.83,-74.53,62.01,87,81,4.43,US,1601606188
24,Butaritari,3.07,172.79,81.28,73,0,14.83,KI,1601606437
25,Rikitea,-23.12,-134.97,73.29,79,0,17.92,PF,1601606438
26,Saint-Philippe,-21.36,55.77,68.0,64,2,4.7,RE,1601606438
27,Yellowknife,62.46,-114.35,42.8,81,75,9.17,CA,1601606438
28,Saldanha,-33.01,17.94,56.39,69,99,24.56,ZA,1601606438
29,Nanortalik,60.14,-45.24,38.21,84,100,17.47,GL,1601606439
30,Carutapera,-1.2,-46.02,77.07,85,64,7.72,BR,1601606439
31,Brasiléia,-11.02,-68.75,77.52,66,10,1.92,BR,1601606439
32,Saskylakh,71.92,114.08,27.64,90,100,21.07,RU,1601606440
33,Cape Town,-33.93,18.42,57.99,58,40,17.22,ZA,1601606152
34,Busselton,-33.65,115.33,61.0,52,41,16.17,AU,1601606284
35,Fortuna,40.6,-124.16,60.01,100,1,3.98,US,1601606440
36,Takoradze,4.88,-1.76,74.8,89,55,7.09,GH,1601606440
37,Sitka,57.05,-135.33,55.4,82,1,4.65,US,1601606440
38,Sakakah,29.97,40.21,73.4,20,0,6.93,SA,1601606441
39,Talnakh,69.49,88.4,35.6,100,90,6.71,RU,1601606441
40,Bambanglipuro,-7.95,110.28,87.24,61,44,11.95,ID,1601606441
41,Ancud,-41.87,-73.82,37.99,80,31,5.82,CL,1601606442
42,Olafsvik,64.89,-23.71,43.21,70,39,13.69,IS,1601606442
43,Ninh Binh,20.25,105.97,86.86,70,95,6.35,VN,1601606442
44,Adrar,20.5,-10.07,88.59,19,0,17.05,MR,1601606443
45,Ribeira Grande,38.52,-28.7,68.04,84,89,15.86,PT,1601606443
46,Richards Bay,-28.78,32.04,63.05,79,83,8.41,ZA,1601606443
47,Lorengau,-2.02,147.27,81.21,80,100,6.38,PG,1601606443
48,Salinópolis,-0.61,-47.36,78.26,84,99,8.79,BR,1601606444
49,Bengkulu,-3.8,102.27,78.13,88,99,11.95,ID,1601606444
50,Fuyang,32.9,115.82,73.87,73,100,6.58,CN,1601606444
51,Sorong,-0.88,131.25,85.35,69,83,2.68,ID,1601606445
52,Baoro,5.67,15.97,65.37,95,76,1.97,CF,1601606445
53,Guilin,25.28,110.29,78.8,78,75,2.24,CN,1601606445
54,Barrow,71.29,-156.79,33.8,86,90,17.22,US,1601606445
55,Flinders,-34.58,150.86,75.99,41,0,4.0,AU,1601606446
56,Arrondissement de Beaune,47.08,4.75,52.0,100,100,6.13,FR,1601606446
57,Oranjemund,-28.55,16.43,54.14,84,0,12.59,NA,1601606446
58,Atuona,-9.8,-139.03,78.66,76,4,22.32,PF,1601606446
59,Nikolskoye,59.7,30.79,44.01,93,62,8.95,RU,1601606446
60,Tommot,58.96,126.29,38.55,76,98,7.78,RU,1601606447
61,San Quintín,30.48,-115.95,78.84,43,0,8.57,MX,1601606447
62,Chui,-33.7,-53.46,54.68,79,0,9.69,UY,1601606447
63,Port Macquarie,-31.43,152.92,79.0,51,5,1.99,AU,1601606447
64,Kapoeta,4.77,33.59,72.73,79,0,2.53,SS,1601606448
65,Great Yarmouth,52.61,1.73,55.0,87,84,5.82,GB,1601606448
66,Abū Zabad,12.35,29.25,75.49,70,0,6.02,SD,1601606448
67,Neiafu,-18.65,-173.98,82.4,78,75,5.82,TO,1601606448
68,Kokologo,12.19,-1.89,71.64,93,58,6.49,BF,1601606449
69,New Norfolk,-42.78,147.06,68.0,50,28,7.0,AU,1601606449
70,Zemio,5.03,25.14,68.59,96,98,1.68,CF,1601606449
71,Ko Samui,9.54,99.94,86.0,66,20,3.36,TH,1601606343
72,Arroyos y Esteros,-25.07,-57.1,93.2,32,0,11.41,PY,1601606450
73,Ayagoz,47.97,80.44,39.09,72,0,16.04,KZ,1601606450
74,Manono,-7.3,27.42,69.55,89,20,2.55,CD,1601606450
75,Kaitangata,-46.28,169.85,55.0,62,89,5.99,NZ,1601606450
76,Thompson,55.74,-97.86,30.2,92,75,2.17,CA,1601606451
77,Cayenne,4.93,-52.33,75.2,94,26,3.36,GF,1601606451
78,Songea,-10.68,35.65,61.36,93,88,5.17,TZ,1601606451
79,Samarai,-10.62,150.67,78.85,85,95,22.17,PG,1601606451
80,Alta Floresta,-9.88,-56.09,69.26,93,88,2.44,BR,1601606357
81,Jamestown,42.1,-79.24,46.99,87,75,6.93,US,1601606452
82,Mar del Plata,-38.0,-57.56,48.2,66,75,12.75,AR,1601606329
83,Magadan,59.57,150.8,49.19,59,0,5.37,RU,1601606452
84,Mersing,2.43,103.84,82.4,83,40,4.7,MY,1601606452
85,Hobart,-42.88,147.33,68.0,34,40,21.92,AU,1601606280
86,Vila Franca do Campo,37.72,-25.43,68.0,77,75,8.05,PT,1601606453
87,Hobyo,5.35,48.53,76.91,87,13,16.22,SO,1601606453
88,Muros,42.78,-9.06,62.01,80,100,7.0,ES,1601606453
89,Mahébourg,-20.41,57.7,64.4,93,20,8.05,MU,1601606453
90,Tasiilaq,65.61,-37.64,32.0,98,100,33.33,GL,1601606453
91,Kavaratti,10.57,72.64,81.55,72,65,9.66,IN,1601606454
92,Hamilton,39.18,-84.53,53.6,54,40,6.93,US,1601606454
93,Saint Paul Harbor,57.79,-152.41,51.8,81,90,27.51,US,1601606285
94,La Reforma,18.1,-91.02,74.08,96,100,8.12,MX,1601606454
95,Norman Wells,65.28,-126.83,44.6,87,75,3.36,CA,1601606454
96,Makkah al Mukarramah,21.43,39.83,78.26,61,0,2.01,SA,1601606455
97,Castro,-24.79,-50.01,71.19,49,0,1.5,BR,1601606455
98,Barra Patuca,15.8,-84.28,78.44,88,98,9.75,HN,1601606455
99,Kirakira,-10.45,161.92,84.13,67,21,7.38,SB,1601606456
100,Puerto Escondido,15.85,-97.07,77.0,73,90,12.75,MX,1601606456
101,Hilo,19.73,-155.09,84.2,70,75,5.82,US,1601606456
102,Raudeberg,61.99,5.14,57.99,58,25,15.01,NO,1601606456
103,Ponta do Sol,32.67,-17.1,69.8,68,75,2.24,PT,1601606457
104,Harper,4.38,-7.72,76.44,88,92,9.24,LR,1601606457
105,Nyurba,63.28,118.33,36.75,72,19,8.28,RU,1601606457
106,Tuktoyaktuk,69.45,-133.04,41.0,93,90,12.75,CA,1601606458
107,Bastrop,32.76,-91.87,62.6,87,1,4.97,US,1601606458
108,Constantine,36.37,6.61,55.4,87,0,2.24,DZ,1601606458
109,Huarmey,-10.07,-78.15,61.9,85,38,9.53,PE,1601606458
110,Marin,38.07,-122.73,77.0,50,1,5.77,US,1601606458
111,Victor Harbor,-35.57,138.62,84.99,23,0,24.16,AU,1601606459
112,Sulangan,11.14,123.72,84.18,71,40,6.51,PH,1601606459
113,Lebu,-37.62,-73.65,45.54,83,1,6.82,CL,1601606459
114,Polessk,54.86,21.1,54.0,87,6,11.18,RU,1601606459
115,Carnarvon,-24.87,113.63,71.6,64,53,13.87,AU,1601606402
116,Provideniya,64.38,-173.3,39.2,93,90,15.66,RU,1601606460
117,Cabo San Lucas,22.89,-109.91,87.8,78,5,11.41,MX,1601606361
118,Geraldton,-28.77,114.6,69.8,56,75,5.82,AU,1601606270
119,Sjenica,43.27,20.0,42.3,90,1,4.18,RS,1601606460
120,Hong Kong,22.29,114.16,82.99,75,37,5.99,HK,1601606196
121,Cardoso,-20.08,-49.91,85.12,23,92,8.97,BR,1601606460
122,Bathsheba,13.22,-59.52,82.4,74,75,16.11,BB,1601606460
123,Pucallpa,-8.38,-74.55,72.37,75,85,1.74,PE,1601606461
124,Leningradskiy,69.38,178.42,35.62,95,100,20.02,RU,1601606461
125,Metro,-5.11,105.31,88.59,56,34,7.29,ID,1601606461
126,Manali,13.17,80.27,80.6,83,20,6.93,IN,1601606462
127,Medvezh'yegorsk,62.92,34.47,43.16,92,0,3.47,RU,1601606462
128,Pevek,69.7,170.31,36.39,79,100,14.47,RU,1601606462
129,Tazovsky,67.47,78.7,42.96,91,100,11.63,RU,1601606463
130,Portland,45.52,-122.68,70.0,68,75,4.7,US,1601606357
131,Philadelphia,39.95,-75.16,64.4,72,90,4.68,US,1601606353
132,Iralaya,15.0,-83.23,79.25,81,100,3.83,HN,1601606463
133,Katsuura,35.13,140.3,79.0,73,20,5.82,JP,1601606463
134,Mackay,-21.15,149.2,84.99,61,97,16.11,AU,1601606464
135,Ust'-Ilimsk,58.0,102.66,34.97,86,90,3.8,RU,1601606464
136,Turukhansk,65.82,87.98,38.71,97,100,14.97,RU,1601606464
137,Zhuhai,22.28,113.57,88.0,74,20,12.75,CN,1601606464
138,Port Alfred,-33.59,26.89,57.9,72,100,22.26,ZA,1601606465
139,Yar-Sale,66.83,70.83,44.51,84,94,11.32,RU,1601606465
140,Biltine,14.53,20.92,82.54,54,73,4.79,TD,1601606465
141,Cerrito,6.84,-72.69,49.78,83,93,3.51,CO,1601606282
142,Krasnoarmeysk,51.02,45.7,52.0,57,35,1.99,RU,1601606466
143,Aksay,47.26,39.87,60.8,48,20,22.37,RU,1601606466
144,Ayr,55.46,-4.63,37.4,93,20,2.55,GB,1601606466
145,Erfurt,50.98,11.03,50.0,87,67,5.82,DE,1601606466
146,Naze,28.37,129.48,86.0,66,20,14.99,JP,1601606466
147,Kahului,20.89,-156.47,84.2,74,90,13.87,US,1601606365
148,George Town,5.41,100.34,80.6,88,20,5.82,MY,1601606467
149,Puerto Ayora,-0.74,-90.35,68.0,87,65,5.01,EC,1601606467
150,Karoi,-16.81,29.69,66.51,49,0,6.58,ZW,1601606467
151,Cherskiy,68.75,161.3,37.09,74,2,2.77,RU,1601606468
152,Port-Gentil,-0.72,8.78,76.28,81,71,11.23,GA,1601606468
153,Havøysund,71.0,24.66,46.4,87,94,16.11,NO,1601606468
154,Sidi Ali,36.1,0.42,67.59,52,0,16.62,DZ,1601606468
155,Road Town,18.42,-64.62,82.0,88,100,11.99,VG,1601606468
156,Dikson,73.51,80.55,34.61,85,100,18.54,RU,1601606468
157,Bambous Virieux,-20.34,57.76,69.01,93,20,8.05,MU,1601606469
158,San Patricio,19.22,-104.7,79.74,85,0,5.53,MX,1601606469
159,Nuuk,64.18,-51.72,44.6,93,100,19.46,GL,1601606470
160,Karratha,-20.74,116.85,91.0,21,48,12.75,AU,1601606286
161,Pahrump,36.21,-115.98,86.0,3,1,8.05,US,1601606470
162,Krasnosel'kup,65.7,82.47,43.2,88,100,12.26,RU,1601606470
163,Miran Shah,33.01,70.07,75.29,17,0,7.94,PK,1601606470
164,Ibaté,-21.95,-48.0,81.1,38,79,7.02,BR,1601606470
165,Beyneu,45.32,55.2,51.21,42,0,10.71,KZ,1601606467
166,Ilo,-17.64,-71.34,60.1,78,82,4.29,PE,1601606471
167,Kasane,-17.82,25.15,72.97,43,62,5.08,BW,1601606471
168,Sakaiminato,35.55,133.23,75.2,60,40,5.82,JP,1601606471
169,Ternate,0.8,127.4,84.79,71,100,6.15,ID,1601606472
170,Namtsy,62.72,129.67,37.4,51,0,4.47,RU,1601606472
171,Pundaguitan,6.37,126.17,84.13,73,98,5.86,PH,1601606472
172,São João da Barra,-21.64,-41.05,74.43,84,10,19.55,BR,1601606472
173,Nizhniy Kuranakh,58.84,125.49,39.43,74,99,5.97,RU,1601606473
174,Severo-Kuril'sk,50.68,156.12,50.94,76,100,6.87,RU,1601606473
175,Nara,34.69,135.8,84.0,47,20,4.7,JP,1601606473
176,Longyearbyen,78.22,15.64,32.43,94,100,1.86,SJ,1601606474
177,Khovd,48.01,91.64,34.0,76,68,9.42,MN,1601606474
178,Hofn,64.25,-15.21,44.08,57,60,3.38,IS,1601606474
179,Kuusamo,65.97,29.18,46.4,93,90,1.12,FI,1601606474
180,Kavieng,-2.57,150.8,82.13,78,100,13.04,PG,1601606474
181,Yinchuan,38.47,106.27,58.57,31,15,3.94,CN,1601606343
182,Plaster Rock,46.91,-67.39,55.4,76,90,3.02,CA,1601606475
183,Guerrero Negro,27.98,-114.06,79.54,51,0,11.32,MX,1601606475
184,Quelimane,-17.88,36.89,73.4,73,4,3.36,MZ,1601606475
185,Saint-Pierre,-21.34,55.48,69.8,64,0,4.7,RE,1601606475
186,Linxia Chengguanzhen,35.6,103.21,53.44,53,96,4.18,CN,1601606476
187,Ciudad Bolivar,8.12,-63.55,79.59,82,99,9.71,VE,1601606476
188,Pasni,25.26,63.47,86.16,37,0,9.73,PK,1601606476
189,Maceió,-9.67,-35.74,73.4,88,75,3.36,BR,1601606459
190,North Battleford,52.78,-108.28,46.4,54,90,12.75,CA,1601606477
191,Jumla,29.27,82.18,67.6,41,0,1.1,NP,1601606477
192,San Matías,-16.37,-58.4,84.96,24,78,3.89,BO,1601606477
193,‘Āhuimanu,21.44,-157.84,86.0,66,20,11.41,US,1601606478
194,Iqaluit,63.75,-68.51,26.6,79,75,2.24,CA,1601606356
195,Necochea,-38.55,-58.74,46.0,75,1,5.99,AR,1601606478
196,Pareora,-44.49,171.21,64.99,25,7,7.0,NZ,1601606478
197,Nome,64.5,-165.41,48.99,81,90,14.99,US,1601606478
198,Makakilo City,21.35,-158.09,86.0,58,75,9.17,US,1601606208
199,Aripuanã,-9.17,-60.63,73.04,86,94,3.6,BR,1601606479
200,Quincy,42.25,-71.0,64.4,82,1,10.29,US,1601606320
201,Amahai,-3.33,128.92,82.74,73,39,13.42,ID,1601606479
202,Port Elizabeth,-33.92,25.57,59.0,58,90,21.92,ZA,1601606479
203,Bethel,41.37,-73.41,60.8,63,75,4.65,US,1601606479
204,Sechura,-5.56,-80.82,63.63,82,19,9.75,PE,1601606480
205,Northam,51.03,-4.22,50.0,95,97,1.01,GB,1601606480
206,Havelock,34.88,-76.9,71.01,82,1,4.7,US,1601606480
207,Nelson Bay,-32.72,152.15,77.0,23,0,10.29,AU,1601606480
208,Ahipara,-35.17,173.17,61.61,58,96,5.93,NZ,1601606480
209,Bluff,-46.6,168.33,57.0,59,100,7.0,NZ,1601606481
210,Buraidah,26.33,43.98,71.6,37,0,4.7,SA,1601606348
211,Regina,50.45,-104.62,46.99,52,75,9.17,CA,1601606294
212,Beberibe,-4.18,-38.13,80.6,78,75,14.99,BR,1601606481
213,Nokaneng,-19.67,22.27,69.66,50,0,5.75,BW,1601606481
214,Morant Bay,17.88,-76.41,80.6,83,75,16.11,JM,1601606481
215,Isangel,-19.55,169.27,77.0,78,90,11.41,VU,1601606482
216,La Rioja,42.25,-2.5,66.2,52,100,20.8,ES,1601606482
217,Nikol'sk,53.72,46.07,46.76,73,11,4.27,RU,1601606482
218,Mount Isa,-20.73,139.5,93.2,21,0,12.75,AU,1601606219
219,Buritis,-15.62,-46.42,74.34,31,29,1.45,BR,1601606482
220,Salalah,17.02,54.09,75.2,83,20,4.7,OM,1601606483
221,Licata,37.11,13.95,66.2,93,14,4.7,IT,1601606483
222,Comodoro Rivadavia,-45.87,-67.5,37.4,59,40,11.41,AR,1601606483
223,Marondera,-18.19,31.55,59.9,57,0,6.13,ZW,1601606483
224,Araouane,18.9,-3.53,93.4,26,0,8.3,ML,1601606484
225,The Valley,18.22,-63.06,84.2,79,40,12.75,AI,1601606463
226,Samandağ,36.08,35.98,64.4,88,40,5.82,TR,1601606484
227,Mujiayingzi,42.12,118.78,54.39,41,0,13.76,CN,1601606484
228,Manzhouli,49.6,117.43,45.27,73,100,9.4,CN,1601606484
229,Vostok,46.49,135.88,54.25,53,98,3.98,RU,1601606485
230,Kalianget,-7.05,113.93,87.12,57,11,10.18,ID,1601606485
231,Kiryat Gat,31.61,34.76,73.99,73,40,3.36,IL,1601606485
232,Ballina,-28.87,153.57,78.8,73,40,13.87,AU,1601606485
233,Sinnamary,5.38,-52.95,79.32,82,6,6.24,GF,1601606486
234,Mpongwe,-13.51,28.16,61.23,56,0,4.9,ZM,1601606486
235,Dingle,11.0,122.67,86.23,75,47,6.44,PH,1601606486
236,Kandrian,-6.22,149.55,77.29,92,100,10.36,PG,1601606487
237,Ambovombe,-25.17,46.08,65.37,94,39,3.67,MG,1601606487
238,Muli,2.92,73.57,82.15,77,100,9.15,MV,1601606487
239,Upernavik,72.79,-56.15,21.96,91,0,17.54,GL,1601606488
240,Kirya,-3.92,37.48,70.68,80,92,8.28,TZ,1601606488
241,Santa Rosa,14.31,121.11,87.8,79,75,5.82,PH,1601606400
242,Clyde River,70.47,-68.59,30.2,92,90,20.8,CA,1601606488
243,Billings Metropolitan Area,45.78,-108.5,60.8,31,90,3.36,US,1601606488
244,Port Hedland,-20.32,118.57,96.8,11,93,13.87,AU,1601606489
245,Pangnirtung,66.15,-65.71,24.4,85,19,6.35,CA,1601606489
246,Shingū,33.73,135.98,78.8,65,40,5.82,JP,1601606489
247,Mount Gambier,-37.83,140.77,73.4,46,0,17.22,AU,1601606490
248,Kupang,-10.17,123.58,91.4,38,20,25.28,ID,1601606490
249,Airai,-8.93,125.41,77.85,45,0,7.34,TL,1601606490
250,Nantucket,41.28,-70.1,62.01,88,1,8.05,US,1601606490
251,Mana,5.66,-53.78,78.98,84,27,5.97,GF,1601606490
252,Sarlat-la-Canéda,44.89,1.22,54.0,94,100,1.99,FR,1601606491
253,Deputatsky,69.3,139.9,28.2,91,97,2.01,RU,1601606491
254,Soyo,-6.13,12.37,74.82,82,90,6.8,AO,1601606491
255,Godineşti,45.0,22.97,50.97,84,56,0.69,RO,1601606491
256,Broken Hill,-31.95,141.43,82.4,26,0,13.87,AU,1601606491
257,Faanui,-16.48,-151.75,78.76,78,41,19.06,PF,1601606492
258,Narsaq,60.92,-46.05,39.2,90,100,16.11,GL,1601606492
259,Maïné Soroa,13.21,12.02,82.81,50,1,6.33,NE,1601606492
260,Bonthe,7.53,-12.51,76.73,91,100,5.66,SL,1601606493
261,Shache,38.42,77.24,59.97,30,1,8.23,CN,1601606493
262,Dhola,21.88,71.78,81.66,73,74,7.83,IN,1601606493
263,Øksfjord,70.24,22.35,50.0,81,11,9.17,NO,1601606493
264,Taltal,-25.4,-70.48,57.99,72,24,6.49,CL,1601606494
265,Mmabatho,-25.85,25.63,66.2,22,99,6.93,ZA,1601606494
266,Saint-Louis,16.33,-15.0,90.97,24,0,7.31,SN,1601606494
267,Caravelas,-17.71,-39.25,71.78,88,90,5.39,BR,1601606494
268,George Town,5.41,100.34,80.6,88,20,5.82,MY,1601606210
269,Pitimbu,-7.47,-34.81,77.0,83,20,6.93,BR,1601606495
270,Ozernovskiy,51.5,156.52,48.97,79,30,6.62,RU,1601606495
271,Seymchan,62.88,152.43,45.95,56,43,6.31,RU,1601606495
272,Nanyamba,-10.68,39.83,69.8,88,20,2.28,TZ,1601606495
273,Wanning,18.8,110.4,86.25,71,100,0.78,CN,1601606496
274,Port Hardy,50.7,-127.42,57.2,93,75,4.61,CA,1601606496
275,Yulara,-25.24,130.99,91.4,9,0,13.87,AU,1601606496
276,Bandundu Province,-3.32,17.37,70.03,94,49,2.75,CD,1601606497
277,Atar,20.52,-13.05,88.25,23,0,11.63,MR,1601606497
278,Ludvika,60.15,15.19,51.8,93,86,6.93,SE,1601606497
279,Effium,6.63,8.06,72.14,98,100,4.43,NG,1601606497
280,Torrington,41.8,-73.12,57.0,95,0,3.51,US,1601606498
281,Ginda,30.69,78.49,71.6,83,0,3.36,IN,1601606498
282,Berlevåg,70.86,29.09,42.8,87,75,3.36,NO,1601606498
283,Sarai Naurang,32.83,70.78,84.96,16,0,3.96,PK,1601606498
284,Saint George,37.1,-113.58,84.2,6,1,8.05,US,1601606300
285,Devonport,-41.17,146.35,63.0,68,66,11.99,AU,1601606499
286,Tahlequah,35.92,-94.97,54.0,61,0,6.31,US,1601606499
287,Waitati,-45.75,170.57,62.01,73,68,13.0,NZ,1601606499
288,Khatanga,71.97,102.5,32.86,95,99,14.07,RU,1601606499
289,Djambala,-2.54,14.75,63.93,94,94,2.26,CG,1601606500
290,Bāfq,31.61,55.41,66.56,26,35,2.66,IR,1601606500
291,Winnemucca,40.97,-117.74,75.2,11,1,5.82,US,1601606500
292,Te Anau,-45.42,167.72,52.27,75,100,9.08,NZ,1601606501
293,Klaksvík,62.23,-6.59,51.8,100,100,23.04,FO,1601606501
294,Lubao,14.92,120.55,86.0,79,75,2.24,PH,1601606501
295,Normandin,48.83,-72.53,46.4,87,90,4.7,CA,1601606501
296,Gwadar,25.12,62.33,84.2,64,0,7.63,PK,1601606502
297,Yurimaguas,-5.9,-76.08,72.55,88,53,0.65,PE,1601606502
298,Bariloche,-41.15,-71.31,37.4,55,40,3.36,AR,1601606426
299,Warrnambool,-38.38,142.48,75.99,54,0,7.0,AU,1601606502
300,Lethem,3.38,-59.8,81.18,59,53,5.7,GY,1601606502
301,São José da Coroa Grande,-8.9,-35.15,74.88,83,52,9.93,BR,1601606502
302,Chapais,49.78,-74.85,35.6,93,1,5.82,CA,1601606503
303,Lavrentiya,65.58,-171.0,38.46,86,100,10.96,RU,1601606503
304,Dutlwe,-23.98,23.9,57.67,31,15,7.78,BW,1601606503
305,Vao,-22.67,167.48,70.27,70,7,12.06,NC,1601606504
306,Calvinia,-31.47,19.78,44.1,86,76,5.99,ZA,1601606504
307,Pacifica,37.61,-122.49,80.6,28,90,10.29,US,1601606471
308,Saint-François,46.42,3.91,57.99,62,100,8.05,FR,1601606504
309,Ürümqi,43.8,87.6,50.0,39,11,2.24,CN,1601606404
310,Vung Tau,10.35,107.08,84.0,72,99,3.06,VN,1601606230
311,Tabou,4.42,-7.35,76.15,88,100,8.88,CI,1601606505
312,Fare,-16.7,-151.02,79.83,76,1,19.6,PF,1601606505
313,Aloleng,16.13,119.78,86.11,71,97,8.59,PH,1601606505
314,Berbera,10.44,45.01,85.77,71,1,7.87,SO,1601606466
315,Husavik,66.04,-17.34,24.8,92,14,4.7,IS,1601606505
316,Rypefjord,70.63,23.67,46.4,87,31,16.11,NO,1601606505
317,Puerto Maldonado,-12.6,-69.18,81.5,49,86,1.74,PE,1601606506
318,Malangali,-8.57,34.85,60.08,83,21,7.54,TZ,1601606506
319,Panshi,42.94,126.06,59.77,59,1,18.68,CN,1601606506
320,Great Falls,47.5,-111.3,62.6,39,1,6.93,US,1601606506
321,Sur,22.57,59.53,85.48,43,0,2.73,OM,1601606506
322,Tiksi,71.69,128.87,27.55,94,80,16.02,RU,1601606507
323,Pimentel,-6.84,-79.93,61.27,89,6,11.88,PE,1601606507
324,Barra de Tecoanapa,16.52,-98.75,81.18,84,100,8.1,MX,1601606507
325,Poletayevo,55.03,61.11,32.0,84,75,2.24,RU,1601606508
326,Cartagena del Chairá,1.33,-74.84,72.07,91,4,1.74,CO,1601606508
327,Anadyr,64.75,177.48,39.2,69,100,6.71,RU,1601606508
328,Umm Hājar,13.3,19.7,81.45,60,49,7.07,TD,1601606509
329,Santa Vitória do Palmar,-33.52,-53.37,55.92,83,0,10.02,BR,1601606509
330,Progreso,21.28,-89.67,77.0,94,75,3.36,MX,1601606509
331,Zahnitkiv,48.04,28.9,54.0,95,52,6.71,UA,1601606509
332,Urubichá,-15.38,-62.95,79.97,45,0,3.2,BO,1601606509
333,Basco,20.45,121.97,81.66,74,0,18.3,PH,1601606510
334,San Isidro,-12.12,-77.05,62.6,82,90,13.87,PE,1601606510
335,Rio Grande,-32.03,-52.1,64.99,96,97,1.01,BR,1601606510
336,Sikonge,-5.63,32.77,66.4,55,0,4.88,TZ,1601606510
337,Mogadishu,2.04,45.34,77.74,87,69,13.6,SO,1601606511
338,Amazar,53.86,120.88,48.09,73,100,9.13,RU,1601606511
339,Kutum,14.2,24.67,75.88,52,43,3.44,SD,1601606511
340,Yangi Marg`ilon,40.43,71.72,55.4,62,96,0.45,UZ,1601606511
341,Kattivākkam,13.22,80.32,80.6,83,20,6.93,IN,1601606512
342,Drayton Valley,53.22,-114.99,55.0,77,64,2.39,CA,1601606512
343,Ha Giang,22.83,104.98,87.01,63,77,3.49,VN,1601606512
344,Batagay-Alyta,67.8,130.41,28.71,76,6,10.51,RU,1601606512
345,Luanda,-8.84,13.23,71.6,88,20,5.82,AO,1601606513
346,Kenai,60.55,-151.26,54.0,62,90,12.75,US,1601606513
347,Médéa,36.26,2.75,59.0,93,0,3.36,DZ,1601606513
348,Mossamedes,-15.2,12.15,60.96,87,9,2.51,AO,1601606514
349,Inírida,3.87,-67.92,75.24,95,100,0.87,CO,1601606342
350,Russell,32.35,-85.2,71.6,88,1,3.36,US,1601606514
351,Pacific Grove,36.62,-121.92,77.0,38,90,4.7,US,1601606514
352,Lerici,44.08,9.91,64.99,85,100,3.0,IT,1601606514
353,Lata,40.16,-8.33,64.0,95,100,11.01,PT,1601606514
354,Bilibino,68.05,166.44,32.09,90,80,1.54,RU,1601606514
355,Kanniyākumāri,8.08,77.57,81.75,68,79,16.28,IN,1601606354
356,Lagoa,39.05,-27.98,68.58,83,100,14.0,PT,1601606515
357,Vardø,70.37,31.11,44.6,81,75,4.7,NO,1601606515
358,Benjamin Constant,-4.38,-70.03,77.0,88,82,3.36,BR,1601606369
359,Shenjiamen,29.96,122.3,74.7,65,0,7.76,CN,1601606515
360,Savannah Bight,16.45,-85.85,83.28,74,100,10.78,HN,1601606515
361,Pangai,-19.8,-174.35,82.4,83,40,11.41,TO,1601606516
362,Acaraú,-2.89,-40.12,78.42,83,23,17.47,BR,1601606516
363,Laguna,38.42,-121.42,84.0,42,1,5.82,US,1601606516
364,Khasan,42.43,130.64,56.66,94,100,14.0,RU,1601606516
365,Westport,41.14,-73.36,64.4,55,75,4.7,US,1601606516
366,El Alto,-4.27,-81.21,61.09,90,79,14.65,PE,1601606517
367,Mitsamiouli,-11.38,43.28,77.68,81,57,10.47,KM,1601606517
368,Baruun-Urt,46.68,113.28,38.17,73,91,12.1,MN,1601606517
369,Thinadhoo,0.53,72.93,83.03,69,94,3.4,MV,1601606517
370,Phalaborwa,-23.94,31.14,60.8,100,87,10.29,ZA,1601606518
371,Tautira,-17.73,-149.15,86.0,55,40,6.93,PF,1601606518
372,Padang,-0.95,100.35,77.67,84,100,6.26,ID,1601606519
373,Bratsk,56.13,101.61,30.2,92,75,6.71,RU,1601606519
374,Jizan,17.33,42.67,86.0,79,20,2.68,SA,1601606519
375,Kudahuvadhoo,2.67,72.89,82.4,76,100,8.7,MV,1601606519
376,Okhotsk,59.38,143.3,52.59,56,58,2.71,RU,1601606520
377,Terråk,65.09,12.37,57.2,62,13,5.82,NO,1601606520
378,Naranjal,-2.67,-79.62,75.2,69,20,17.22,EC,1601606520
379,Lingao,19.91,109.69,85.95,71,100,2.77,CN,1601606520
380,Praia,14.92,-23.51,78.8,83,75,14.99,CV,1601606521
381,Los Llanos de Aridane,28.66,-17.92,71.6,68,20,12.75,ES,1601606521
382,Wajima,37.4,136.9,69.8,64,40,4.7,JP,1601606521
383,Igrim,63.19,64.42,46.67,91,1,9.13,RU,1601606522
384,Yerbogachën,61.28,108.01,34.2,83,0,6.29,RU,1601606522
385,Abu Samrah,35.3,37.18,61.05,91,0,4.23,SY,1601606522
386,Heraclea,37.51,34.05,49.59,76,0,0.63,TR,1601606522
387,Lauria,40.05,15.84,56.19,80,41,2.04,IT,1601606522
388,Taoudenni,22.68,-3.98,88.2,12,0,1.07,ML,1601606523
389,Teguise,29.06,-13.56,73.4,69,75,16.11,ES,1601606523
390,Bulgan,48.81,103.53,26.29,94,100,12.19,MN,1601606523
391,Henties Bay,-22.12,14.28,48.99,77,0,1.99,NA,1601606523
392,Port Harcourt,4.78,7.01,74.16,94,100,3.87,NG,1601606524
393,Mahon,39.89,4.27,71.6,83,88,16.11,ES,1601606524
394,Coos Bay,43.37,-124.22,60.01,100,90,10.29,US,1601606524
395,Whitehorse,60.72,-135.05,52.0,53,40,11.41,CA,1601606403
396,Tezu,27.92,96.17,82.04,65,98,0.78,IN,1601606524
397,De-Kastri,51.47,140.78,58.6,56,5,5.53,RU,1601606525
398,Zigong,29.34,104.78,68.32,91,100,3.87,CN,1601606525
399,Shubarshi,48.59,57.19,47.62,47,0,6.98,KZ,1601606525
400,Saint John,45.27,-66.07,59.0,100,75,10.29,CA,1601606525
401,Haines Junction,60.75,-137.51,43.34,74,99,2.89,CA,1601606526
402,Ambilobe,-13.2,49.05,69.4,87,1,3.6,MG,1601606526
403,Sabang,5.89,95.32,83.34,76,89,18.34,ID,1601606526
404,Ipixuna,-1.76,-48.8,77.0,88,55,5.82,BR,1601606527
405,Piaçabuçu,-10.41,-36.43,74.05,82,25,9.8,BR,1601606527
406,Itarema,-2.92,-39.92,78.69,82,20,17.63,BR,1601606527
407,General Roca,-39.03,-67.58,53.6,40,1,3.36,AR,1601606527
408,Anloga,5.79,0.9,77.0,88,20,9.17,GH,1601606527
409,Eilat,29.56,34.95,80.6,69,0,11.41,IL,1601606528
410,Wanlaweyn,2.62,44.89,75.22,85,68,6.42,SO,1601606528
411,Roald,62.58,6.13,60.8,48,70,17.22,NO,1601606528
412,Saint-Ambroise,48.55,-71.33,50.0,100,90,4.7,CA,1601606528
413,Hovorany,48.95,16.99,51.01,98,100,2.59,CZ,1601606528
414,Ryōtsu-minato,38.08,138.43,73.4,56,33,5.82,JP,1601606529
415,Margate,51.38,1.39,60.01,79,100,8.01,GB,1601606529
416,Fairbanks,64.84,-147.72,66.2,27,1,4.7,US,1601606475
417,Megion,61.03,76.11,39.2,100,78,4.47,RU,1601606529
418,Varhaug,58.61,5.65,57.0,80,100,8.99,NO,1601606529
419,Ewo,-0.87,14.82,67.55,96,65,2.46,CG,1601606529
420,Omsukchan,62.53,155.8,40.17,61,0,2.73,RU,1601606530
421,Peace River,56.25,-117.29,57.2,54,20,12.75,CA,1601606530
422,Show Low,34.25,-110.03,66.2,7,1,4.7,US,1601606530
423,Port Keats,-14.25,129.55,92.59,39,88,1.68,AU,1601606530
424,Kadoma,34.73,135.58,84.0,53,20,4.7,JP,1601606531
425,Hasaki,35.73,140.83,79.0,60,20,2.24,JP,1601606349
426,Ust'-Kan,50.93,84.76,34.77,81,1,2.48,RU,1601606531
427,Alofi,-19.06,-169.92,80.6,94,75,9.17,NU,1601606531
428,Aitape,-3.14,142.35,78.4,82,100,9.6,PG,1601606532
429,Kankaanpää,61.8,22.42,48.2,100,100,5.82,FI,1601606532
430,Aksu,41.12,80.26,60.94,28,100,4.61,CN,1601606532
431,Ossora,59.24,163.07,48.65,62,70,17.34,RU,1601606533
432,Arlit,18.74,7.39,93.09,21,96,4.92,NE,1601606533
433,Broome,42.25,-75.83,51.8,76,90,0.85,US,1601606533
434,Mangan,27.52,88.53,82.76,40,16,3.85,IN,1601606533
435,Alberton,46.82,-64.07,58.42,78,13,11.92,CA,1601606533
436,Ilhéus,-14.79,-39.05,71.69,88,93,3.31,BR,1601606533
437,Poum,-20.23,164.02,72.66,67,100,9.13,NC,1601606534
438,Mombetsu,44.35,143.35,59.0,82,75,3.36,JP,1601606534
439,Innisfail,-17.53,146.03,75.0,58,51,18.99,AU,1601606534
440,Shihezi,44.3,86.03,55.27,37,0,7.7,CN,1601606535
441,Payson,40.04,-111.73,62.6,48,1,6.93,US,1601606535
442,Puerto Cabezas,14.04,-83.39,77.76,83,100,2.15,NI,1601606535
443,Beloha,-25.17,45.05,63.28,97,37,5.97,MG,1601606535
444,Valdivia,-39.81,-73.25,42.8,100,90,2.24,CL,1601606435
445,Karur,10.95,78.08,81.75,66,100,10.04,IN,1601606536
446,Rocha,-34.48,-54.33,49.5,80,0,8.21,UY,1601606536
447,Phalodi,27.13,72.37,87.94,41,0,10.07,IN,1601606536
448,Blackfoot,43.19,-112.34,64.0,29,1,6.93,US,1601606536
449,Quatre Cocos,-20.21,57.76,69.01,93,20,8.05,MU,1601606410
450,Namalenga,-10.95,39.1,67.71,91,24,2.01,TZ,1601606537
451,Puerto Ayacucho,5.66,-67.62,76.03,89,88,2.55,VE,1601606537
452,Navoiy,40.08,65.38,44.6,56,0,9.17,UZ,1601606537
453,Bubaque,11.28,-15.83,81.18,81,95,9.37,GW,1601606538
454,Srandakan,-7.94,110.25,87.28,61,46,11.9,ID,1601606538
455,Tutóia,-2.76,-42.27,79.68,81,0,13.47,BR,1601606538
456,Kanjiža,46.07,20.05,57.2,79,96,7.31,RS,1601606538
457,Ust-Kuyga,70.02,135.6,31.59,86,92,4.85,RU,1601606538
458,Wakkanai,45.41,141.67,57.2,87,75,11.41,JP,1601606350
459,Charlottetown,46.24,-63.13,60.8,72,5,10.29,CA,1601606524
460,Oistins,13.07,-59.53,82.4,74,75,16.11,BB,1601606539
461,Port Lincoln,-34.73,135.87,79.97,36,0,22.97,AU,1601606539
462,Doha,25.29,51.53,89.6,74,0,4.7,QA,1601606283
463,São Filipe,14.9,-24.5,81.18,79,100,7.29,CV,1601606539
464,Mahanoro,-19.9,48.8,71.42,91,7,6.73,MG,1601606540
465,Najrān,17.49,44.13,68.0,24,0,0.65,SA,1601606540
466,San Juan,-31.54,-68.54,54.1,37,0,11.27,AR,1601606540
467,Eureka,40.8,-124.16,60.01,87,1,5.82,US,1601606393
468,Paraná,-31.73,-60.52,56.32,54,2,14.88,AR,1601606541
469,Moose Factory,51.26,-80.61,39.2,100,90,8.05,CA,1601606541
470,Ilulissat,69.22,-51.1,41.0,60,100,13.87,GL,1601606541
471,Sambava,-14.27,50.17,70.83,92,11,6.67,MG,1601606541
472,College,64.86,-147.8,66.2,29,40,4.7,US,1601606358
473,Camacha,33.08,-16.33,68.0,82,40,5.82,PT,1601606541
474,At-Bashi,41.17,75.81,48.2,52,100,7.49,KG,1601606542
475,Madīnat Sittah Uktūbar,29.82,31.05,75.2,69,40,3.36,EG,1601606542
476,Werda,-25.27,23.28,50.92,41,0,7.74,BW,1601606542
477,Kargasok,59.06,80.86,46.09,96,100,5.32,RU,1601606543
478,Imeni Poliny Osipenko,52.42,136.49,56.28,59,66,5.26,RU,1601606543
479,Bucerías,20.75,-105.33,84.2,79,40,3.36,MX,1601606505
480,Pital,2.27,-75.8,65.84,73,53,4.85,CO,1601606543
481,Ayan,56.45,138.17,50.86,55,0,2.77,RU,1601606544
482,Touros,-5.2,-35.46,77.0,78,75,5.82,BR,1601606544
483,Chumikan,54.72,135.31,52.75,66,13,11.59,RU,1601606544
484,Blagoveshchenka,52.83,79.87,41.9,68,0,4.18,RU,1601606544
485,Joinville,-26.3,-48.85,69.01,91,1,1.99,BR,1601606500
486,Salina Cruz,16.17,-95.2,78.17,56,47,24.81,MX,1601606545
487,Assiut,27.18,31.18,74.46,41,0,3.6,EG,1601606545
488,Khovu-Aksy,51.13,93.6,31.41,83,70,5.84,RU,1601606546
489,Saint-Joseph,-21.37,55.62,69.8,64,1,4.7,RE,1601606546
490,Douglas,41.3,-96.17,55.4,61,90,3.36,US,1601606546
491,Avanigadda,16.02,80.92,80.6,88,40,4.7,IN,1601606546
492,Port Blair,11.67,92.75,82.99,81,100,15.39,IN,1601606495
493,Peniche,39.36,-9.38,66.0,89,100,18.99,PT,1601606546
494,Shalakusha,62.22,40.25,43.83,95,53,2.33,RU,1601606547
495,Tateyama,34.98,139.87,75.99,64,20,8.05,JP,1601606547
496,Sarangani,5.4,125.46,84.29,72,89,11.36,PH,1601606547
497,Kumul,42.8,93.45,55.51,32,100,15.14,CN,1601606346
498,Muisne,0.6,-80.03,73.22,83,100,8.5,EC,1601606548
499,Tashla,51.77,52.74,49.53,66,0,3.06,RU,1601606548
500,Payo,-3.75,103.64,92.07,49,42,1.54,ID,1601606548
501,Siderno,38.28,16.3,71.01,63,88,2.53,IT,1601606548
502,Sri Aman,1.24,111.46,84.2,83,20,3.36,MY,1601606548
503,Lompoc,34.64,-120.46,82.4,36,1,3.36,US,1601606267
504,Waingapu,-9.66,120.26,88.41,49,54,18.21,ID,1601606549
505,Nakamura,32.98,132.93,76.78,64,24,4.09,JP,1601606549
506,Les Escoumins,48.11,-69.02,46.89,94,6,7.78,CA,1601606549
507,Qui Nhon,13.77,109.23,86.05,67,99,4.09,VN,1601606394
508,Libertad,8.94,125.5,87.69,61,60,5.66,PH,1601606550
509,Kruisfontein,-34.0,24.73,55.99,79,97,5.01,ZA,1601606550
510,Kysyl-Syr,63.9,122.76,37.76,68,20,8.19,RU,1601606550
511,Kazachinskoye,57.7,93.28,36.99,81,93,3.87,RU,1601606551
512,Machalí,-34.18,-70.67,45.91,76,14,1.59,CL,1601606551
513,Barranca,-10.75,-77.77,60.4,88,66,8.93,PE,1601606551
514,Tessalit,20.2,1.01,88.25,24,0,13.4,ML,1601606551
515,Ust'-Koksa,50.27,85.61,37.85,68,21,2.08,RU,1601606552
516,Owando,-0.48,15.9,66.67,99,83,1.41,CG,1601606552
517,Outlook,51.5,-107.05,48.99,51,97,1.99,CA,1601606552
518,Meulaboh,4.14,96.13,81.1,81,98,7.87,ID,1601606553
519,Moree,-29.47,149.85,80.6,26,0,9.17,AU,1601606553
520,Ouadda,8.08,22.4,67.39,92,57,1.92,CF,1601606553
521,Masuguru,-11.37,38.42,69.44,90,15,3.91,TZ,1601606553
522,Fresnillo,23.17,-102.88,57.61,36,0,9.53,MX,1601606554
523,Léo,11.1,-2.1,70.03,96,94,4.18,BF,1601606554
524,Merauke,-8.47,140.33,84.11,57,1,19.51,ID,1601606554
525,Mporokoso,-9.37,30.12,60.03,63,0,3.04,ZM,1601606555
526,Alice Springs,-23.7,133.88,93.2,7,2,11.41,AU,1601606273
527,Gillette,44.29,-105.5,53.01,45,1,4.7,US,1601606555
528,Vaitape,-16.52,-151.75,79.63,76,40,19.04,PF,1601606287
529,Gaza,31.5,34.47,73.99,73,40,3.36,PS,1601606524
530,Chiang Khong,20.26,100.4,80.6,88,75,3.36,TH,1601606555
531,Port Moresby,-9.44,147.18,84.2,70,75,11.41,PG,1601606361
532,Nnewi,6.02,6.91,71.33,99,99,2.93,NG,1601606557
533,Fort Nelson,58.81,-122.7,59.0,61,20,9.17,CA,1601606407
534,Tuatapere,-46.13,167.68,57.0,59,100,7.0,NZ,1601606557
535,Vygonichi,53.1,34.07,55.4,47,92,11.18,RU,1601606557
536,Samfya,-11.36,29.56,66.74,49,6,6.38,ZM,1601606557
537,Mabaruma,8.2,-59.78,77.5,88,22,3.91,GY,1601606557
538,Balabac,7.99,117.06,86.97,63,68,5.66,PH,1601606558
539,Las Vegas,36.17,-115.14,93.2,5,1,2.77,US,1601606522
540,Kopavogur,64.11,-21.91,41.0,75,20,10.29,IS,1601606558
541,Caernarfon,53.14,-4.27,50.0,81,100,13.87,GB,1601606558
542,Copiapó,-27.37,-70.33,53.6,81,0,8.05,CL,1601606558
543,Kamina,-8.74,24.99,66.11,91,95,3.24,CD,1601606559
544,Popondetta,-8.75,148.25,89.67,50,63,7.63,PG,1601606559
545,Koumac,-20.57,164.28,73.78,61,100,13.13,NC,1601606559
546,Tura,25.52,90.22,82.17,82,100,2.33,IN,1601606286
547,La Tuque,47.43,-72.78,42.28,95,53,2.08,CA,1601606560
548,Hokitika,-42.72,170.97,54.97,74,89,8.72,NZ,1601606477
549,High Level,58.52,-117.14,60.8,36,20,9.17,CA,1601606560
550,Hudson Bay,52.85,-102.38,39.51,76,100,3.65,CA,1601606560
551,Porbandar,21.64,69.61,78.8,88,14,5.82,IN,1601606407
552,Beringovskiy,63.05,179.32,40.19,89,100,27.16,RU,1601606562
553,Dukat,62.55,155.55,38.07,64,0,1.77,RU,1601606562
554,Purranque,-40.92,-73.17,42.8,75,51,3.36,CL,1601606487
555,North Bend,43.41,-124.22,60.01,100,90,10.29,US,1601606313
556,Jūnāgarh,19.87,82.93,76.55,74,100,2.1,IN,1601606562
557,Sosenskiy,54.06,35.96,50.0,57,86,6.71,RU,1601606563
558,Sisimiut,66.94,-53.67,32.61,80,99,5.91,GL,1601606563
559,Faya,18.39,42.45,62.6,29,20,2.66,SA,1601606563
560,Jiuquan,39.74,98.52,54.55,31,92,12.84,CN,1601606564
561,Linhares,-19.39,-40.07,70.81,91,49,3.47,BR,1601606301
562,Bayan,46.08,127.4,59.0,65,74,8.72,CN,1601606564
563,Peachland,49.77,-119.74,60.8,77,90,2.24,CA,1601606564
564,Namatanai,-3.67,152.43,81.63,67,100,4.79,PG,1601606564
565,Ilām,26.92,87.92,78.8,88,40,2.24,NP,1601606565
566,Alegrete,-29.78,-55.79,71.44,91,59,17.31,BR,1601606565
567,Zavallya,48.21,30.02,55.85,90,100,8.25,UA,1601606565
568,Iwanai,42.97,140.51,68.85,61,100,5.59,JP,1601606565
569,Neuquén,-38.95,-68.06,53.6,40,0,3.36,AR,1601606420
570,Huambo,-12.78,15.74,65.34,71,95,1.68,AO,1601606565
571,Krasnorechenskiy,44.63,135.35,51.84,77,100,5.17,RU,1601606566
572,Copperas Cove,31.12,-97.9,71.6,46,1,6.93,US,1601606566
573,Virden,39.5,-89.77,51.01,75,0,5.01,US,1601606566
574,Amudat,1.95,34.95,68.86,71,5,1.41,UG,1601606566
575,Saint Anthony,45.02,-93.22,46.4,70,1,3.36,US,1601606566
576,Vitorino Freire,-4.07,-45.17,76.68,81,11,6.93,BR,1601606566
577,Mehamn,71.04,27.85,44.98,84,95,7.36,NO,1601606566
578,Fitioneşti,45.98,27.05,54.0,93,27,4.7,RO,1601606567
579,Srednekolymsk,67.45,153.68,41.38,62,98,13.6,RU,1601606567
580,Vestmannaeyjar,63.44,-20.27,44.04,69,0,4.79,IS,1601606567
581,Panama City,8.99,-79.52,80.01,94,75,2.21,PA,1601606443
582,Samarkand,39.65,66.96,50.0,66,0,6.93,UZ,1601606567
583,Koutsouras,35.03,25.95,69.01,71,1,5.01,GR,1601606568
584,Morros,-9.45,-46.3,75.0,26,65,4.97,BR,1601606568
585,La Orilla,17.98,-102.23,78.93,85,22,4.45,MX,1601606568
586,Davila,18.47,120.58,87.8,70,40,3.36,PH,1601606569
587,Makhachkala,42.98,47.5,64.4,59,97,17.9,RU,1601606569
588,Arman',59.7,150.17,51.12,54,0,5.35,RU,1601606569
589,Brumunddal,60.88,10.94,51.01,86,94,1.01,NO,1601606569
590,Majene,-3.54,118.97,87.4,64,18,10.47,ID,1601606569
591,Tefé,-3.35,-64.71,74.12,94,82,0.65,BR,1601606570
592,Saint-Augustin,51.23,-58.65,51.48,89,32,11.12,CA,1601606570
593,Tahe,52.33,124.73,45.9,79,100,5.66,CN,1601606570
594,Marfino,55.7,37.38,54.0,61,91,6.71,RU,1601606570
595,São Félix do Xingu,-6.64,-51.99,70.99,86,36,1.54,BR,1601606571
596,Mālūr,13.01,77.94,71.6,94,75,6.93,IN,1601606571
597,Abhā,18.22,42.51,62.6,29,40,2.28,SA,1601606525
598,Kaeo,-35.1,173.78,60.76,57,86,7.76,NZ,1601606571
599,Hervey Bay,-25.3,152.85,82.0,47,2,9.17,AU,1601606572
600,Tigwav,18.43,-72.87,82.4,69,13,11.41,HT,1601606572
601,Govlyar,40.95,45.73,60.8,72,75,2.24,AZ,1601606572
602,Tabas,33.6,56.92,60.8,26,0,2.24,IR,1601606572
603,Luena,-11.78,19.92,65.07,79,77,3.8,AO,1601606572
604,Vila Velha,-20.33,-40.29,77.0,83,20,11.41,BR,1601606573
605,Kodār,16.98,79.97,81.12,78,77,8.7,IN,1601606573
606,São Sebastião,-23.76,-45.41,82.92,52,51,3.83,BR,1601606490
607,Bontang,0.13,117.5,77.97,91,100,6.69,ID,1601606573
608,La Palma,33.85,-118.05,89.6,24,1,5.59,US,1601606281
609,Porto Walter,-8.27,-72.74,73.47,79,93,1.95,BR,1601606574
610,Ambunti,-4.24,142.84,81.16,72,100,3.53,PG,1601606574
611,Tilichiki,60.47,166.1,43.48,69,96,24.81,RU,1601606574
612,Cairns,-16.92,145.77,87.01,51,40,21.92,AU,1601606426
613,Chicontepec,20.97,-98.17,59.16,87,22,4.07,MX,1601606575
614,Kyra,49.58,111.98,35.2,72,100,12.66,RU,1601606575
615,Henderson,36.04,-114.98,93.2,6,1,9.17,US,1601606461
616,Ponta Delgada,37.73,-25.67,68.0,77,75,8.05,PT,1601606575
617,Avera,33.19,-82.53,64.4,93,1,4.7,US,1601606576
618,Jalu,29.03,21.55,75.87,42,0,6.38,LY,1601606576
619,Koungou,-12.73,45.2,75.2,88,46,3.36,YT,1601606576
620,La Unión,-5.4,-80.75,64.62,78,13,9.46,PE,1601606576
621,Hambantota,6.12,81.12,83.52,67,61,18.41,LK,1601606577
622,Marzuq,14.4,46.47,71.64,61,0,2.3,YE,1601606577
623,Half Moon Bay,37.46,-122.43,80.6,61,5,3.36,US,1601606577
624,Petropavlovsk-Kamchatskiy,53.05,158.65,60.8,48,10,6.71,RU,1601606577
625,Cuamba,-14.8,36.54,66.16,55,1,4.61,MZ,1601606578
626,Noyabrsk,63.2,75.45,44.11,89,91,11.83,RU,1601606578
627,Inhambane,-23.86,35.38,71.28,90,80,4.38,MZ,1601606578
628,Ziro,27.63,93.83,68.85,82,42,0.4,IN,1601606345
629,Koygorodok,60.45,51.0,46.45,96,89,4.41,RU,1601606579
630,Inta,66.03,60.17,46.4,90,96,15.37,RU,1601606579
631,Korla,41.76,86.15,58.77,27,0,8.88,CN,1601606348
632,Jos,9.92,8.9,64.04,95,34,1.66,NG,1601606579
633,Sistranda,63.73,8.83,55.4,66,0,27.51,NO,1601606580
634,Toucheng,24.86,121.82,86.0,33,20,6.71,TW,1601606580
635,Salamanca,40.83,-6.0,57.2,71,75,23.04,ES,1601606580
636,Erenhot,43.65,111.98,44.13,50,0,15.97,CN,1601606580
637,Malakal,9.53,31.66,71.06,89,5,2.8,SS,1601606581
638,Fujin,47.26,132.03,53.28,81,100,14.0,CN,1601606581
639,Palu,-0.89,119.87,92.39,47,68,2.48,ID,1601606581
640,Vanavara,60.34,102.28,34.5,85,50,4.38,RU,1601606582
641,Panabá,21.28,-88.27,76.44,92,100,6.69,MX,1601606582
642,Poway,32.96,-117.04,84.2,28,1,6.93,US,1601606582
643,North Branch,45.51,-92.98,43.0,83,33,3.0,US,1601606582
644,Al Bardīyah,31.76,25.09,68.32,77,0,1.68,LY,1601606583
645,Corinth,37.94,22.96,62.01,61,50,1.99,GR,1601606583
646,Yumen,40.28,97.2,53.04,32,100,11.56,CN,1601606583
647,La Romana,18.43,-68.97,77.0,100,40,10.63,DO,1601606583
648,Lanzhou,36.06,103.79,60.01,56,97,4.52,CN,1601606292
649,Bosconia,9.97,-73.88,75.69,92,100,4.09,CO,1601606583
650,Tual,-5.67,132.75,81.28,78,87,20.83,ID,1601606584
651,Palmer,42.16,-72.33,50.0,93,20,1.45,US,1601606584
652,Sunrise Manor,36.21,-115.07,93.2,5,1,3.06,US,1601606584
653,Emerald,-23.53,148.17,87.01,35,0,8.05,AU,1601606584
654,Province of Mantua,45.17,10.78,60.01,93,100,5.99,IT,1601606584
655,Köflach,47.07,15.08,52.0,100,20,2.24,AT,1601606584
656,Haukipudas,65.18,25.35,44.6,100,59,3.36,FI,1601606584
657,Baykit,61.67,96.37,34.84,83,94,4.03,RU,1601606585
658,Venado Tuerto,-33.75,-61.97,48.99,71,0,5.01,AR,1601606409
659,Tabory,58.52,64.55,45.73,93,28,4.56,RU,1601606585
660,Awjilah,29.11,21.29,75.34,42,0,6.35,LY,1601606586
661,Buchanan,5.88,-10.05,76.84,91,99,8.3,LR,1601606586
662,Anjār,23.13,70.02,81.19,74,0,10.49,IN,1601606586
663,Lakes Entrance,-37.88,147.98,80.01,32,0,7.0,AU,1601606586
664,Uyuni,-20.46,-66.83,52.77,39,0,8.63,BO,1601606587
665,Hithadhoo,-0.6,73.08,83.16,67,30,2.06,MV,1601606587
666,Kjøpsvik,68.1,16.37,55.0,71,91,1.01,NO,1601606587
667,Paamiut,61.99,-49.67,37.31,94,100,57.85,GL,1601606587
668,Menongue,-14.66,17.69,66.78,67,99,2.73,AO,1601606588
669,Imeni Morozova,59.98,31.04,44.01,85,80,5.84,RU,1601606588
670,Chaihe,44.77,129.7,52.47,93,100,4.38,CN,1601606588
671,Vologda,59.22,39.89,47.14,79,96,4.97,RU,1601606588
672,Ambulu,-8.35,113.61,87.67,59,45,6.73,ID,1601606588
673,Jieshi,22.81,115.83,82.0,72,4,15.21,CN,1601606589
674,Udachny,66.42,112.4,23.0,73,75,6.71,RU,1601606589
675,Derzhavīnsk,51.1,66.32,47.59,55,27,6.31,KZ,1601606467
676,Kearney,40.7,-99.08,46.4,52,1,4.7,US,1601606589
677,Steamboat Springs,40.48,-106.83,57.2,19,1,1.59,US,1601606589
678,Nemuro,43.32,145.57,64.4,72,75,5.82,JP,1601606590
679,Nsanje,-16.92,35.26,72.45,69,9,3.78,MW,1601606590
680,Shahrud,36.42,54.98,54.25,46,0,2.57,IR,1601606590
681,Karuzi Province,-3.12,30.13,60.1,87,5,1.01,BI,1601606590
682,Sobolevo,54.43,31.9,49.05,64,64,11.1,RU,1601606590
683,Synya,65.37,58.04,44.76,91,97,7.49,RU,1601606591
684,Fayaoué,-20.65,166.53,72.41,73,100,12.77,NC,1601606591
685,Verkhnyaya Inta,65.98,60.31,46.11,91,95,15.55,RU,1601606591
686,Zhaoyang,42.68,126.03,60.22,64,1,18.37,CN,1601606592
687,Sola,-13.88,167.55,80.15,81,49,11.92,VU,1601606592
688,Nevel',56.02,29.93,47.41,71,56,8.43,RU,1601606592
689,Antalaha,-14.9,50.28,69.58,90,17,4.81,MG,1601606592
690,Copacabana,6.35,-75.51,64.67,76,57,1.59,CO,1601606592
